# 
# Header Description:
# 
# Version: v3.0.3.1 Platform: 11 Manufacturer: OnePlus Model: ONEPLUS A6013
# 
# Raw,utcTimeMillis,TimeNanos,LeapSecond,TimeUncertaintyNanos,FullBiasNanos,BiasNanos,BiasUncertaintyNanos,DriftNanosPerSecond,DriftUncertaintyNanosPerSecond,HardwareClockDiscontinuityCount,Svid,TimeOffsetNanos,State,ReceivedSvTimeNanos,ReceivedSvTimeUncertaintyNanos,Cn0DbHz,PseudorangeRateMetersPerSecond,PseudorangeRateUncertaintyMetersPerSecond,AccumulatedDeltaRangeState,AccumulatedDeltaRangeMeters,AccumulatedDeltaRangeUncertaintyMeters,CarrierFrequencyHz,CarrierCycles,CarrierPhase,CarrierPhaseUncertainty,MultipathIndicator,SnrInDb,ConstellationType,AgcDb,BasebandCn0DbHz,FullInterSignalBiasNanos,FullInterSignalBiasUncertaintyNanos,SatelliteInterSignalBiasNanos,SatelliteInterSignalBiasUncertaintyNanos,CodeType,ChipsetElapsedRealtimeNanos
# 
# UncalAccel,utcTimeMillis,elapsedRealtimeNanos,UncalAccelXMps2,UncalAccelYMps2,UncalAccelZMps2,BiasXMps2,BiasYMps2,BiasZMps2
# 
# UncalGyro,utcTimeMillis,elapsedRealtimeNanos,UncalGyroXRadPerSec,UncalGyroYRadPerSec,UncalGyroZRadPerSec,DriftXRadPerSec,DriftYRadPerSec,DriftZRadPerSec
# 
# UncalMag,utcTimeMillis,elapsedRealtimeNanos,UncalMagXMicroT,UncalMagYMicroT,UncalMagZMicroT,BiasXMicroT,BiasYMicroT,BiasZMicroT
# 
# OrientationDeg,utcTimeMillis,elapsedRealtimeNanos,yawDeg,rollDeg,pitchDeg
# 
# Fix,Provider,LatitudeDegrees,LongitudeDegrees,AltitudeMeters,SpeedMps,AccuracyMeters,BearingDegrees,UnixTimeMillis,SpeedAccuracyMps,BearingAccuracyDegrees,elapsedRealtimeNanos
# 
# Nav,Svid,Type,Status,MessageId,Sub-messageId,Data(Bytes)
# 
# Status,UnixTimeMillis,SignalCount,SignalIndex,ConstellationType,Svid,CarrierFrequencyHz,Cn0DbHz,AzimuthDegrees,ElevationDegrees,UsedInFix,HasAlmanacData,HasEphemerisData,BasebandCn0DbHz
# 
Fix,FLP,37.4311063,-122.1690863,2.400000,0.026068,3.216000,174.513580,1646037309000,0.086023256,0.0,1200423039858248,1.411312
Status,0,18,0,1,8,1575420032,28.90,300.00,33.00,1,1,1,28.9
Status,0,18,1,1,10,1575420032,29.20,1.00,67.00,1,1,1,29.2
Status,0,18,2,1,18,1575420032,20.90,115.00,27.00,1,1,1,20.9
Status,0,18,3,1,21,1575420032,25.30,309.00,12.00,1,1,1,25.3
Status,0,18,4,1,22,1575420032,30.30,195.00,33.00,1,1,1,30.3
Status,0,18,5,1,23,1575420032,17.00,52.00,42.00,1,1,1,17.0
Status,0,18,6,1,24,1575420032,26.10,67.00,18.00,0,1,1,26.1
Status,0,18,7,1,27,1575420032,29.90,258.00,52.00,1,1,1,29.9
Status,0,18,8,1,32,1575420032,33.90,192.00,52.00,1,1,1,33.9
Status,0,18,9,1,16,1575420032,0.00,0.00,0.00,0,1,0,0.0
Status,0,18,10,3,2,1602000000,15.70,30.00,36.00,1,1,0,15.7
Status,0,18,11,3,18,1602000000,26.70,333.00,74.00,1,1,0,26.7
Status,0,18,12,3,19,1602000000,15.10,329.00,26.00,1,1,0,15.1
Status,0,18,13,3,17,1602000000,27.50,144.00,49.00,1,1,0,27.5
Status,0,18,14,3,3,1602000000,30.60,292.00,74.00,1,1,0,30.6
Status,0,18,15,3,4,1602000000,29.90,233.00,28.00,1,1,0,29.9
Status,0,18,16,2,135,1575420032,29.80,0.00,0.00,0,0,0,29.8
Status,0,18,17,2,138,1575420032,30.50,0.00,0.00,0,0,0,30.5
Fix,FLP,37.4311063,-122.1690862,2.400000,0.018212,3.216000,168.756989,1646037310000,0.092195444,0.0,1200424039858248,1.421312
Fix,GPS,37.4311063,-122.1690862,-5.362152,0.000000,3.216000,0.000000,1646037310000,0.092195444,0.0,1200424039858248,3.0
Raw,1646037309444,2711293209000000,18,,-1327361234235231479,-0.21264171600341797,33.96462125238031,-29.483255548599683,12.865057753468786,541,8,0.0,81935,117327368849404,17,28.9,-267.1940612792969,0.20000000298023224,16,0.0,0.0,1.57542003E9,,,,0,,1,0.0,25.4,,,,,,1200423469408960
Raw,1646037309444,2711293209000000,18,,-1327361234235231479,-0.21264171600341797,33.96462125238031,-29.483255548599683,12.865057753468786,541,10,0.0,81935,117327374816682,16,29.2,63.35353088378906,0.20000000298023224,16,0.0,0.0,1.57542003E9,,,,0,,1,0.0,25.7,,,,,,1200423469408960
Raw,1646037309444,2711293209000000,18,,-1327361234235231479,-0.21264171600341797,33.96462125238031,-29.483255548599683,12.865057753468786,541,18,0.0,81935,117327367996937,46,20.9,505.75299072265625,0.8569999933242798,16,0.0,0.0,1.57542003E9,,,,0,,1,0.0,17.4,,,,,,1200423469408960
Raw,1646037309444,2711293209000000,18,,-1327361234235231479,-0.21264171600341797,33.96462125238031,-29.483255548599683,12.865057753468786,541,21,0.0,81935,117327361975628,24,25.3,-530.8170166015625,0.3833000063896179,16,0.0,0.0,1.57542003E9,,,,0,,1,0.0,21.8,,,,,,1200423469408960
Raw,1646037309444,2711293209000000,18,,-1327361234235231479,-0.21264171600341797,33.96462125238031,-29.483255548599683,12.865057753468786,541,22,0.0,81935,117327369476447,14,30.3,-579.70849609375,0.20000000298023224,16,0.0,0.0,1.57542003E9,,,,0,,1,0.0,26.8,,,,,,1200423469408960
Raw,1646037309444,2711293209000000,18,,-1327361234235231479,-0.21264171600341797,33.96462125238031,-29.483255548599683,12.865057753468786,541,27,0.0,81935,117327373201959,16,29.9,149.23146057128906,0.20000000298023224,16,0.0,0.0,1.57542003E9,,,,0,,1,0.0,26.4,,,,,,1200423469408960
Raw,1646037309444,2711293209000000,18,,-1327361234235231479,-0.21264171600341797,33.96462125238031,-29.483255548599683,12.865057753468786,541,32,0.0,81935,117327373059584,11,33.9,-446.7982482910156,0.20000000298023224,16,0.0,0.0,1.57542003E9,,,,0,,1,0.0,30.4,,,,,,1200423469408960
Fix,NLP,37.4286881,-122.1707237,2.400000,0.000000,110.000000,0.000000,1646037299679,0.0,0.0,1200415242000000,1.3333334
Status,1646037310000,18,0,1,8,1575420032,29.70,300.00,33.00,1,1,1,29.7
Status,1646037310000,18,1,1,10,1575420032,28.20,1.00,67.00,1,1,1,28.2
Status,1646037310000,18,2,1,18,1575420032,22.10,115.00,27.00,1,1,1,22.1
Status,1646037310000,18,3,1,21,1575420032,23.10,309.00,12.00,1,1,1,23.1
Status,1646037310000,18,4,1,22,1575420032,28.50,195.00,33.00,1,1,1,28.5
Status,1646037310000,18,5,1,23,1575420032,17.00,52.00,42.00,0,1,1,17.0
Status,1646037310000,18,6,1,24,1575420032,26.10,67.00,18.00,0,1,1,26.1
Status,1646037310000,18,7,1,27,1575420032,31.50,258.00,52.00,1,1,1,31.5
Status,1646037310000,18,8,1,32,1575420032,32.10,192.00,52.00,1,1,1,32.1
Status,1646037310000,18,9,1,16,1575420032,0.00,0.00,0.00,0,1,0,0.0
Status,1646037310000,18,10,3,2,1602000000,14.20,30.00,36.00,1,1,0,14.2
Status,1646037310000,18,11,3,18,1602000000,27.00,333.00,74.00,1,1,0,27.0
Status,1646037310000,18,12,3,19,1602000000,22.80,329.00,26.00,1,1,0,22.8
Status,1646037310000,18,13,3,17,1602000000,27.70,144.00,49.00,1,1,0,27.7
Status,1646037310000,18,14,3,3,1602000000,30.60,292.00,74.00,1,1,0,30.6
Status,1646037310000,18,15,3,4,1602000000,28.40,233.00,28.00,1,1,0,28.4
Status,1646037310000,18,16,2,135,1575420032,29.80,0.00,0.00,0,0,0,29.8
Status,1646037310000,18,17,2,138,1575420032,30.50,0.00,0.00,0,0,0,30.5
Fix,FLP,37.4311065,-122.1690863,2.400000,0.002362,3.216000,338.344818,1646037311000,0.086023256,0.0,1200425039858248,1.431312
Fix,GPS,37.4311065,-122.1690863,-5.409882,0.000000,3.216000,0.000000,1646037311000,0.086023256,0.0,1200425039858248,3.0
Raw,1646037310444,2711294209000000,18,,-1327361234235231505,-0.21516799926757812,34.73766992101446,-29.878731778410724,12.92798975358423,541,8,0.0,81935,117328368850281,16,29.7,-267.96197509765625,0.20000000298023224,16,0.0,0.0,1.57542003E9,,,,0,,1,0.0,26.2,,,,,,1200424469408986
Raw,1646037310444,2711294209000000,18,,-1327361234235231505,-0.21516799926757812,34.73766992101446,-29.878731778410724,12.92798975358423,541,10,0.0,81935,117328374816442,17,28.2,62.44736862182617,0.20000000298023224,16,0.0,0.0,1.57542003E9,,,,0,,1,0.0,24.7,,,,,,1200424469408986
Raw,1646037310444,2711294209000000,18,,-1327361234235231505,-0.21516799926757812,34.73766992101446,-29.878731778410724,12.92798975358423,541,18,0.0,81935,117328367995223,35,22.1,504.6873779296875,0.796999990940094,16,0.0,0.0,1.57542003E9,,,,0,,1,0.0,18.6,,,,,,1200424469408986
Raw,1646037310444,2711294209000000,18,,-1327361234235231505,-0.21516799926757812,34.73766992101446,-29.878731778410724,12.92798975358423,541,21,0.0,81935,117328361977440,31,23.1,-531.47119140625,0.7279999852180481,16,0.0,0.0,1.57542003E9,,,,0,,1,0.0,19.6,,,,,,1200424469408986
Raw,1646037310444,2711294209000000,18,,-1327361234235231505,-0.21516799926757812,34.73766992101446,-29.878731778410724,12.92798975358423,541,22,0.0,81935,117328369478370,17,28.5,-580.5900268554688,0.20000000298023224,16,0.0,0.0,1.57542003E9,,,,0,,1,0.0,25.0,,,,,,1200424469408986
Raw,1646037310444,2711294209000000,18,,-1327361234235231505,-0.21516799926757812,34.73766992101446,-29.878731778410724,12.92798975358423,541,27,0.0,81935,117328373201453,13,31.5,148.35519409179688,0.20000000298023224,16,0.0,0.0,1.57542003E9,,,,0,,1,0.0,28.0,,,,,,1200424469408986
Raw,1646037310444,2711294209000000,18,,-1327361234235231505,-0.21516799926757812,34.73766992101446,-29.878731778410724,12.92798975358423,541,32,0.0,81935,117328373061065,12,32.1,-447.7209167480469,0.20000000298023224,16,0.0,0.0,1.57542003E9,,,,0,,1,0.0,28.6,,,,,,1200424469408986
Status,1646037311000,18,0,1,8,1575420032,28.10,300.00,33.00,1,1,1,28.1
Status,1646037311000,18,1,1,10,1575420032,30.80,1.00,67.00,1,1,1,30.8
Status,1646037311000,18,2,1,18,1575420032,17.10,115.00,27.00,1,1,1,17.1
Status,1646037311000,18,3,1,21,1575420032,19.70,309.00,12.00,1,1,1,19.7
Status,1646037311000,18,4,1,22,1575420032,27.10,195.00,33.00,1,1,1,27.1
Status,1646037311000,18,5,1,23,1575420032,15.20,52.00,42.00,0,1,1,15.2
Status,1646037311000,18,6,1,27,1575420032,29.00,258.00,52.00,1,1,1,29.0
Status,1646037311000,18,7,1,32,1575420032,29.40,192.00,52.00,1,1,1,29.4
Status,1646037311000,18,8,1,16,1575420032,0.00,0.00,0.00,0,1,0,0.0
Status,1646037311000,18,9,1,24,1575420032,0.00,67.00,18.00,0,1,1,0.0
Status,1646037311000,18,10,3,2,1602000000,15.70,30.00,36.00,1,1,0,15.7
Status,1646037311000,18,11,3,18,1602000000,28.10,333.00,74.00,1,1,0,28.1
Status,1646037311000,18,12,3,19,1602000000,20.30,329.00,26.00,1,1,0,20.3
Status,1646037311000,18,13,3,17,1602000000,26.90,144.00,49.00,1,1,0,26.9
Status,1646037311000,18,14,3,3,1602000000,28.10,292.00,74.00,1,1,0,28.1
Status,1646037311000,18,15,3,4,1602000000,27.50,233.00,28.00,1,1,0,27.5
Status,1646037311000,18,16,2,135,1575420032,29.80,0.00,0.00,0,0,0,29.8
Status,1646037311000,18,17,2,138,1575420032,30.50,0.00,0.00,0,0,0,30.5
Fix,FLP,37.4311065,-122.1690862,2.400000,0.002675,3.216000,53.978989,1646037312000,0.13453624,0.0,1200426039858248,1.441312
Fix,GPS,37.4311065,-122.1690862,-5.414124,0.000000,3.216000,0.000000,1646037312000,0.13453624,0.0,1200426039858248,3.0
Raw,1646037311444,2711295209000000,18,,-1327361234235231536,-0.03076934814453125,35.67193925846368,-32.65639877880508,12.154864263008648,541,8,0.0,81935,117329368851192,17,28.1,-268.1432800292969,0.20000000298023224,16,0.0,0.0,1.57542003E9,,,,0,,1,0.0,24.6,,,,,,1200425469409017
Raw,1646037311444,2711295209000000,18,,-1327361234235231536,-0.03076934814453125,35.67193925846368,-32.65639877880508,12.154864263008648,541,10,0.0,81935,117329374816258,14,30.8,62.21803283691406,0.20000000298023224,16,0.0,0.0,1.57542003E9,,,,0,,1,0.0,27.3,,,,,,1200425469409017
Raw,1646037311444,2711295209000000,18,,-1327361234235231536,-0.03076934814453125,35.67193925846368,-32.65639877880508,12.154864263008648,541,18,0.0,81935,117329367993769,70,17.1,504.6683349609375,1.1769999265670776,16,0.0,0.0,1.57542003E9,,,,0,,1,0.0,13.600000000000001,,,,,,1200425469409017
Raw,1646037311444,2711295209000000,18,,-1327361234235231536,-0.03076934814453125,35.67193925846368,-32.65639877880508,12.154864263008648,541,21,0.0,81935,117329361979242,53,19.7,-531.7280883789062,0.9179999828338623,16,0.0,0.0,1.57542003E9,,,,0,,1,0.0,16.2,,,,,,1200425469409017
Raw,1646037311444,2711295209000000,18,,-1327361234235231536,-0.03076934814453125,35.67193925846368,-32.65639877880508,12.154864263008648,541,22,0.0,81935,117329369480319,19,27.1,-580.7632446289062,0.20000000298023224,16,0.0,0.0,1.57542003E9,,,,0,,1,0.0,23.6,,,,,,1200425469409017
Raw,1646037311444,2711295209000000,18,,-1327361234235231536,-0.03076934814453125,35.67193925846368,-32.65639877880508,12.154864263008648,541,23,0.0,81935,117329371593345,170,15.2,366.07745361328125,6.623000144958496,16,0.0,0.0,1.57542003E9,,,,0,,1,0.0,11.7,,,,,,1200425469409017
Raw,1646037311444,2711295209000000,18,,-1327361234235231536,-0.03076934814453125,35.67193925846368,-32.65639877880508,12.154864263008648,541,27,0.0,81935,117329373200958,16,29.0,148.24754333496094,0.20000000298023224,16,0.0,0.0,1.57542003E9,,,,0,,1,0.0,25.5,,,,,,1200425469409017
Raw,1646037311444,2711295209000000,18,,-1327361234235231536,-0.03076934814453125,35.67193925846368,-32.65639877880508,12.154864263008648,541,32,0.0,81935,117329373062581,16,29.4,-447.89056396484375,0.20000000298023224,16,0.0,0.0,1.57542003E9,,,,0,,1,0.0,25.9,,,,,,1200425469409017
Status,1646037312000,18,0,1,8,1575420032,28.40,300.00,33.00,1,1,1,28.4
Status,1646037312000,18,1,1,10,1575420032,33.90,1.00,67.00,1,1,1,33.9
Status,1646037312000,18,2,1,18,1575420032,18.60,115.00,27.00,1,1,1,18.6
Status,1646037312000,18,3,1,21,1575420032,19.40,309.00,12.00,1,1,1,19.4
Status,1646037312000,18,4,1,22,1575420032,27.80,195.00,33.00,1,1,1,27.8
Status,1646037312000,18,5,1,23,1575420032,27.60,52.00,42.00,1,1,1,27.6
Status,1646037312000,18,6,1,27,1575420032,30.30,258.00,52.00,1,1,1,30.3
Status,1646037312000,18,7,1,32,1575420032,30.70,192.00,52.00,1,1,1,30.7
Status,1646037312000,18,8,1,16,1575420032,0.00,0.00,0.00,0,1,0,0.0
Status,1646037312000,18,9,1,24,1575420032,0.00,67.00,18.00,0,1,1,0.0
Status,1646037312000,18,10,3,2,1602000000,23.40,30.00,36.00,1,1,0,23.4
Status,1646037312000,18,11,3,18,1602000000,28.00,333.00,74.00,1,1,0,28.0
Status,1646037312000,18,12,3,19,1602000000,20.10,329.00,26.00,1,1,0,20.1
Status,1646037312000,18,13,3,17,1602000000,26.50,144.00,49.00,1,1,0,26.5
Status,1646037312000,18,14,3,3,1602000000,27.70,292.00,74.00,1,1,0,27.7
Status,1646037312000,18,15,3,4,1602000000,27.00,233.00,28.00,1,1,0,27.0
Status,1646037312000,18,16,2,135,1575420032,29.80,0.00,0.00,0,0,0,29.8
Status,1646037312000,18,17,2,138,1575420032,30.50,0.00,0.00,0,0,0,30.5
Fix,FLP,37.4311067,-122.1690859,2.400000,0.021502,3.216000,49.556419,1646037313000,0.086023256,0.0,1200427039858248,1.451312
Fix,GPS,37.4311068,-122.1690859,-5.438049,0.000000,3.216000,0.000000,1646037313000,0.086023256,0.0,1200427039858248,3.0
Raw,1646037312444,2711296209000000,18,,-1327361234235231576,-0.964259147644043,36.564662877935916,-33.502136402759575,11.414720573838158,541,8,0.0,81935,117330368852086,17,28.4,-271.515869140625,0.20000000298023224,16,0.0,0.0,1.57542003E9,,,,0,,1,0.0,24.9,,,,,,1200426469409057
Raw,1646037312444,2711296209000000,18,,-1327361234235231576,-0.964259147644043,36.564662877935916,-33.502136402759575,11.414720573838158,541,10,0.0,81935,117330374816057,11,33.9,58.89361572265625,0.20000000298023224,16,0.0,0.0,1.57542003E9,,,,0,,1,0.0,30.4,,,,,,1200426469409057
Raw,1646037312444,2711296209000000,18,,-1327361234235231576,-0.964259147644043,36.564662877935916,-33.502136402759575,11.414720573838158,541,18,0.0,81935,117330367991919,61,18.6,501.2715759277344,1.0069999694824219,16,0.0,0.0,1.57542003E9,,,,0,,1,0.0,15.100000000000001,,,,,,1200426469409057
Raw,1646037312444,2711296209000000,18,,-1327361234235231576,-0.964259147644043,36.564662877935916,-33.502136402759575,11.414720573838158,541,21,0.0,81935,117330361981020,53,19.4,-535.4197998046875,0.9980000257492065,16,0.0,0.0,1.57542003E9,,,,0,,1,0.0,15.899999999999999,,,,,,1200426469409057
Raw,1646037312444,2711296209000000,18,,-1327361234235231576,-0.964259147644043,36.564662877935916,-33.502136402759575,11.414720573838158,541,22,0.0,81935,117330369482252,19,27.8,-584.083740234375,0.20000000298023224,16,0.0,0.0,1.57542003E9,,,,0,,1,0.0,24.3,,,,,,1200426469409057
Raw,1646037312444,2711296209000000,18,,-1327361234235231576,-0.964259147644043,36.564662877935916,-33.502136402759575,11.414720573838158,541,23,0.0,81935,117330371592204,19,27.6,361.8731689453125,0.20000000298023224,16,0.0,0.0,1.57542003E9,,,,0,,1,0.0,24.1,,,,,,1200426469409057
Raw,1646037312444,2711296209000000,18,,-1327361234235231576,-0.964259147644043,36.564662877935916,-33.502136402759575,11.414720573838158,541,27,0.0,81935,117330373200471,14,30.3,144.9161834716797,0.20000000298023224,16,0.0,0.0,1.57542003E9,,,,0,,1,0.0,26.8,,,,,,1200426469409057
Raw,1646037312444,2711296209000000,18,,-1327361234235231576,-0.964259147644043,36.564662877935916,-33.502136402759575,11.414720573838158,541,32,0.0,81935,117330373064078,14,30.7,-451.2236328125,0.20000000298023224,16,0.0,0.0,1.57542003E9,,,,0,,1,0.0,27.2,,,,,,1200426469409057
Status,1646037313000,18,0,1,8,1575420032,29.00,300.00,33.00,1,1,1,29.0
Status,1646037313000,18,1,1,10,1575420032,34.40,1.00,67.00,1,1,1,34.4
Status,1646037313000,18,2,1,18,1575420032,19.90,115.00,27.00,1,1,1,19.9
Status,1646037313000,18,3,1,21,1575420032,18.50,309.00,12.00,1,1,1,18.5
Status,1646037313000,18,4,1,22,1575420032,27.80,195.00,33.00,1,1,1,27.8
Status,1646037313000,18,5,1,23,1575420032,24.40,52.00,42.00,1,1,1,24.4
Status,1646037313000,18,6,1,24,1575420032,17.30,67.00,18.00,0,1,1,17.3
Status,1646037313000,18,7,1,27,1575420032,30.70,258.00,52.00,1,1,1,30.7
Status,1646037313000,18,8,1,32,1575420032,30.70,192.00,52.00,1,1,1,30.7
Status,1646037313000,18,9,1,16,1575420032,0.00,0.00,0.00,0,1,0,0.0
Status,1646037313000,18,10,3,2,1602000000,28.00,30.00,36.00,1,1,0,28.0
Status,1646037313000,18,11,3,18,1602000000,28.00,333.00,74.00,1,1,0,28.0
Status,1646037313000,18,12,3,19,1602000000,21.50,329.00,26.00,1,1,0,21.5
Status,1646037313000,18,13,3,17,1602000000,27.10,144.00,49.00,1,1,0,27.1
Status,1646037313000,18,14,3,3,1602000000,27.80,292.00,74.00,1,1,0,27.8
Status,1646037313000,18,15,3,4,1602000000,28.30,233.00,28.00,1,1,0,28.3
Status,1646037313000,18,16,2,135,1575420032,29.80,0.00,0.00,0,0,0,29.8
Status,1646037313000,18,17,2,138,1575420032,30.50,0.00,0.00,0,0,0,30.5
Fix,FLP,37.4311070,-122.1690853,2.400000,0.042175,3.216000,54.270477,1646037314000,0.086023256,0.0,1200428039858248,1.4613119
Fix,GPS,37.4311071,-122.1690852,-5.437561,0.000000,3.216000,0.000000,1646037314000,0.086023256,0.0,1200428039858248,3.0
Raw,1646037313444,2711297209000000,18,,-1327361234235231632,-0.754206657409668,37.127931136637926,-45.421380241638886,12.505544029915901,541,8,0.0,81935,117331368852988,16,29.0,-272.9710998535156,0.20000000298023224,16,0.0,0.0,1.57542003E9,,,,0,,1,0.0,25.5,,,,,,1200427469409113
Raw,1646037313444,2711297209000000,18,,-1327361234235231632,-0.754206657409668,37.127931136637926,-45.421380241638886,12.505544029915901,541,10,0.0,81935,117331374815878,10,34.4,57.25965881347656,0.20000000298023224,16,0.0,0.0,1.57542003E9,,,,0,,1,0.0,30.9,,,,,,1200427469409113
Raw,1646037313444,2711297209000000,18,,-1327361234235231632,-0.754206657409668,37.127931136637926,-45.421380241638886,12.505544029915901,541,18,0.0,81935,117331367990234,53,19.9,498.7311706542969,0.9269999861717224,16,0.0,0.0,1.57542003E9,,,,0,,1,0.0,16.4,,,,,,1200427469409113
Raw,1646037313444,2711297209000000,18,,-1327361234235231632,-0.754206657409668,37.127931136637926,-45.421380241638886,12.505544029915901,541,21,0.0,81935,117331361982809,61,18.5,-536.647216796875,0.9980000257492065,16,0.0,0.0,1.57542003E9,,,,0,,1,0.0,15.0,,,,,,1200427469409113
Raw,1646037313444,2711297209000000,18,,-1327361234235231632,-0.754206657409668,37.127931136637926,-45.421380241638886,12.505544029915901,541,22,0.0,81935,117331369484200,19,27.8,-585.7171020507812,0.20000000298023224,16,0.0,0.0,1.57542003E9,,,,0,,1,0.0,24.3,,,,,,1200427469409113
Raw,1646037313444,2711297209000000,18,,-1327361234235231632,-0.754206657409668,37.127931136637926,-45.421380241638886,12.505544029915901,541,23,0.0,81935,117331371591023,27,24.4,360.61602783203125,0.6829999685287476,16,0.0,0.0,1.57542003E9,,,,0,,1,0.0,20.9,,,,,,1200427469409113
Raw,1646037313444,2711297209000000,18,,-1327361234235231632,-0.754206657409668,37.127931136637926,-45.421380241638886,12.505544029915901,541,24,0.0,81935,117331366111887,73,17.3,-28.753374099731445,1.8955000638961792,16,0.0,0.0,1.57542003E9,,,,0,,1,0.0,13.8,,,,,,1200427469409113
Raw,1646037313444,2711297209000000,18,,-1327361234235231632,-0.754206657409668,37.127931136637926,-45.421380241638886,12.505544029915901,541,27,0.0,81935,117331373200004,14,30.7,143.4100341796875,0.20000000298023224,16,0.0,0.0,1.57542003E9,,,,0,,1,0.0,27.2,,,,,,1200427469409113
Raw,1646037313444,2711297209000000,18,,-1327361234235231632,-0.754206657409668,37.127931136637926,-45.421380241638886,12.505544029915901,541,32,0.0,81935,117331373065602,14,30.7,-452.80303955078125,0.20000000298023224,16,0.0,0.0,1.57542003E9,,,,0,,1,0.0,27.2,,,,,,1200427469409113
Status,1646037314000,18,0,1,8,1575420032,29.60,300.00,33.00,1,1,1,29.6
Status,1646037314000,18,1,1,10,1575420032,34.80,1.00,67.00,1,1,1,34.8
Status,1646037314000,18,2,1,18,1575420032,19.30,115.00,27.00,1,1,1,19.3
Status,1646037314000,18,3,1,21,1575420032,20.10,309.00,12.00,1,1,1,20.1
Status,1646037314000,18,4,1,22,1575420032,29.10,195.00,33.00,1,1,1,29.1
Status,1646037314000,18,5,1,23,1575420032,27.10,52.00,42.00,1,1,1,27.1
Status,1646037314000,18,6,1,24,1575420032,18.60,67.00,18.00,1,1,1,18.6
Status,1646037314000,18,7,1,27,1575420032,31.30,258.00,52.00,1,1,1,31.3
Status,1646037314000,18,8,1,32,1575420032,30.80,192.00,52.00,1,1,1,30.8
Status,1646037314000,18,9,1,16,1575420032,0.00,0.00,0.00,0,1,0,0.0
Status,1646037314000,18,10,3,2,1602000000,31.20,30.00,36.00,1,1,0,31.2
Status,1646037314000,18,11,3,18,1602000000,29.10,333.00,74.00,1,1,0,29.1
Status,1646037314000,18,12,3,19,1602000000,20.10,329.00,26.00,1,1,0,20.1
Status,1646037314000,18,13,3,17,1602000000,26.90,144.00,49.00,1,1,0,26.9
Status,1646037314000,18,14,3,3,1602000000,28.20,292.00,74.00,1,1,0,28.2
Status,1646037314000,18,15,3,4,1602000000,28.30,233.00,28.00,1,1,0,28.3
Status,1646037314000,18,16,2,135,1575420032,28.70,0.00,0.00,0,0,0,28.7
Status,1646037314000,18,17,2,138,1575420032,30.50,0.00,0.00,0,0,0,30.5
Raw,1646037314444,2711298209000000,18,,-1327361234235231691,-0.10715389251708984,34.775024687405676,-50.824752373878106,11.469083445140429,541,8,0.0,81935,117332368853909,16,29.6,-270.887451171875,0.20000000298023224,16,0.0,0.0,1.57542003E9,,,,0,,1,0.0,26.1,,,,,,1200428469409172
Raw,1646037314444,2711298209000000,18,,-1327361234235231691,-0.10715389251708984,34.775024687405676,-50.824752373878106,11.469083445140429,541,10,0.0,81935,117332374815687,10,34.8,59.30619430541992,0.20000000298023224,16,0.0,0.0,1.57542003E9,,,,0,,1,0.0,31.299999999999997,,,,,,1200428469409172
Raw,1646037314444,2711298209000000,18,,-1327361234235231691,-0.10715389251708984,34.775024687405676,-50.824752373878106,11.469083445140429,541,18,0.0,81935,117332367988599,53,19.3,501.34771728515625,1.0069999694824219,16,0.0,0.0,1.57542003E9,,,,0,,1,0.0,15.8,,,,,,1200428469409172
Raw,1646037314444,2711298209000000,18,,-1327361234235231691,-0.10715389251708984,34.775024687405676,-50.824752373878106,11.469083445140429,541,21,0.0,81935,117332361984521,46,20.1,-534.906005859375,0.9179999828338623,16,0.0,0.0,1.57542003E9,,,,0,,1,0.0,16.6,,,,,,1200428469409172
Raw,1646037314444,2711298209000000,18,,-1327361234235231691,-0.10715389251708984,34.775024687405676,-50.824752373878106,11.469083445140429,541,22,0.0,81935,117332369486137,16,29.1,-583.6394653320312,0.20000000298023224,16,0.0,0.0,1.57542003E9,,,,0,,1,0.0,25.6,,,,,,1200428469409172
Raw,1646037314444,2711298209000000,18,,-1327361234235231691,-0.10715389251708984,34.775024687405676,-50.824752373878106,11.469083445140429,541,23,0.0,81935,117332371589807,19,27.1,362.3966979980469,0.20000000298023224,16,0.0,0.0,1.57542003E9,,,,0,,1,0.0,23.6,,,,,,1200428469409172
Raw,1646037314444,2711298209000000,18,,-1327361234235231691,-0.10715389251708984,34.775024687405676,-50.824752373878106,11.469083445140429,541,24,0.0,81935,117332366112058,61,18.6,-27.297626495361328,1.005500078201294,16,0.0,0.0,1.57542003E9,,,,0,,1,0.0,15.100000000000001,,,,,,1200428469409172
Raw,1646037314444,2711298209000000,18,,-1327361234235231691,-0.10715389251708984,34.775024687405676,-50.824752373878106,11.469083445140429,541,27,0.0,81935,117332373199521,13,31.3,145.5369415283203,0.20000000298023224,16,0.0,0.0,1.57542003E9,,,,0,,1,0.0,27.8,,,,,,1200428469409172
Raw,1646037314444,2711298209000000,18,,-1327361234235231691,-0.10715389251708984,34.775024687405676,-50.824752373878106,11.469083445140429,541,32,0.0,81935,117332373067118,14,30.8,-450.7115783691406,0.20000000298023224,16,0.0,0.0,1.57542003E9,,,,0,,1,0.0,27.3,,,,,,1200428469409172
Fix,FLP,37.4311074,-122.1690843,2.400000,0.071587,3.216000,60.944241,1646037315000,0.086023256,0.0,1200429039858248,1.4713119
Fix,GPS,37.4311075,-122.1690841,-5.521240,0.000000,3.216000,0.000000,1646037315000,0.086023256,0.0,1200429039858248,3.0
Fix,NLP,37.4303045,-122.1671078,0.000000,0.000000,968.000000,0.000000,1646037314449,0.0,0.0,1200430011000000,0.0
Fix,FLP,37.4311077,-122.1690837,2.400000,0.065738,5.320000,61.261330,1646037314448,0.086023256,0.0,1200430011000000,1.4713119
Status,1646037315000,18,0,1,8,1575420032,29.40,300.00,33.00,1,1,1,29.4
Status,1646037315000,18,1,1,10,1575420032,35.10,1.00,67.00,1,1,1,35.1
Status,1646037315000,18,2,1,18,1575420032,18.70,115.00,27.00,1,1,1,18.7
Status,1646037315000,18,3,1,21,1575420032,20.30,309.00,12.00,1,1,1,20.3
Status,1646037315000,18,4,1,22,1575420032,28.70,195.00,33.00,1,1,1,28.7
Status,1646037315000,18,5,1,23,1575420032,26.30,52.00,42.00,1,1,1,26.3
Status,1646037315000,18,6,1,24,1575420032,18.60,67.00,18.00,1,1,1,18.6
Status,1646037315000,18,7,1,27,1575420032,30.90,258.00,52.00,1,1,1,30.9
Status,1646037315000,18,8,1,32,1575420032,31.20,192.00,52.00,1,1,1,31.2
Status,1646037315000,18,9,1,16,1575420032,0.00,0.00,0.00,0,1,0,0.0
Status,1646037315000,18,10,3,2,1602000000,31.40,30.00,36.00,1,1,0,31.4
Status,1646037315000,18,11,3,18,1602000000,28.00,333.00,74.00,1,1,0,28.0
Status,1646037315000,18,12,3,19,1602000000,20.90,329.00,26.00,1,1,0,20.9
Status,1646037315000,18,13,3,17,1602000000,27.80,144.00,49.00,1,1,0,27.8
Status,1646037315000,18,14,3,3,1602000000,27.90,292.00,74.00,1,1,0,27.9
Status,1646037315000,18,15,3,4,1602000000,28.20,233.00,28.00,1,1,0,28.2
Status,1646037315000,18,16,2,135,1575420032,28.90,0.00,0.00,0,0,0,28.9
Status,1646037315000,18,17,2,138,1575420032,30.50,0.00,0.00,0,0,0,30.5
Fix,GPS,37.4311075,-122.1690841,-5.524414,0.000000,3.216000,0.000000,1646037316000,0.086023256,0.0,1200430039858248,3.0
Raw,1646037315444,2711299209000000,18,,-1327361234235231732,-0.4280738830566406,32.841671782080084,-44.45002674443167,11.263748032086209,541,8,0.0,81935,117333368854805,16,29.4,-266.875,0.20000000298023224,16,0.0,0.0,1.57542003E9,,,,0,,1,0.0,25.9,,,,,,1200429469409213
Raw,1646037315444,2711299209000000,18,,-1327361234235231732,-0.4280738830566406,32.841671782080084,-44.45002674443167,11.263748032086209,541,10,0.0,81935,117333374815460,9,35.1,63.23249435424805,0.20000000298023224,16,0.0,0.0,1.57542003E9,,,,0,,1,0.0,31.6,,,,,,1200429469409213
Raw,1646037315444,2711299209000000,18,,-1327361234235231732,-0.4280738830566406,32.841671782080084,-44.45002674443167,11.263748032086209,541,18,0.0,81935,117333367986930,61,18.7,505.524658203125,1.0069999694824219,16,0.0,0.0,1.57542003E9,,,,0,,1,0.0,15.2,,,,,,1200429469409213
Raw,1646037315444,2711299209000000,18,,-1327361234235231732,-0.4280738830566406,32.841671782080084,-44.45002674443167,11.263748032086209,541,21,0.0,81935,117333361986265,46,20.3,-531.4046020507812,0.9179999828338623,16,0.0,0.0,1.57542003E9,,,,0,,1,0.0,16.8,,,,,,1200429469409213
Raw,1646037315444,2711299209000000,18,,-1327361234235231732,-0.4280738830566406,32.841671782080084,-44.45002674443167,11.263748032086209,541,22,0.0,81935,117333369488117,17,28.7,-579.7238159179688,0.20000000298023224,16,0.0,0.0,1.57542003E9,,,,0,,1,0.0,25.2,,,,,,1200429469409213
Raw,1646037315444,2711299209000000,18,,-1327361234235231732,-0.4280738830566406,32.841671782080084,-44.45002674443167,11.263748032086209,541,23,0.0,81935,117333371588620,21,26.3,366.310302734375,0.20000000298023224,16,0.0,0.0,1.57542003E9,,,,0,,1,0.0,22.8,,,,,,1200429469409213
Raw,1646037315444,2711299209000000,18,,-1327361234235231732,-0.4280738830566406,32.841671782080084,-44.45002674443167,11.263748032086209,541,27,0.0,81935,117333373199044,14,30.9,149.5491180419922,0.20000000298023224,16,0.0,0.0,1.57542003E9,,,,0,,1,0.0,27.4,,,,,,1200429469409213
Raw,1646037315444,2711299209000000,18,,-1327361234235231732,-0.4280738830566406,32.841671782080084,-44.45002674443167,11.263748032086209,541,32,0.0,81935,117333373068611,13,31.2,-446.7305603027344,0.20000000298023224,16,0.0,0.0,1.57542003E9,,,,0,,1,0.0,27.7,,,,,,1200429469409213
Status,1646037316000,18,0,1,8,1575420032,29.60,300.00,33.00,1,1,1,29.6
Status,1646037316000,18,1,1,10,1575420032,35.10,1.00,67.00,1,1,1,35.1
Status,1646037316000,18,2,1,18,1575420032,18.50,115.00,27.00,1,1,1,18.5
Status,1646037316000,18,3,1,21,1575420032,19.30,309.00,12.00,1,1,1,19.3
Status,1646037316000,18,4,1,22,1575420032,29.00,195.00,33.00,1,1,1,29.0
Status,1646037316000,18,5,1,23,1575420032,26.30,52.00,42.00,1,1,1,26.3
Status,1646037316000,18,6,1,24,1575420032,18.60,67.00,18.00,1,1,1,18.6
Status,1646037316000,18,7,1,27,1575420032,31.00,258.00,52.00,1,1,1,31.0
Status,1646037316000,18,8,1,32,1575420032,31.10,192.00,52.00,1,1,1,31.1
Status,1646037316000,18,9,1,16,1575420032,0.00,0.00,0.00,0,1,0,0.0
Status,1646037316000,18,10,3,2,1602000000,31.70,30.00,36.00,1,1,0,31.7
Status,1646037316000,18,11,3,18,1602000000,29.10,333.00,74.00,1,1,0,29.1
Status,1646037316000,18,12,3,19,1602000000,20.70,329.00,26.00,1,1,0,20.7
Status,1646037316000,18,13,3,17,1602000000,26.80,144.00,49.00,1,1,0,26.8
Status,1646037316000,18,14,3,3,1602000000,28.30,292.00,74.00,1,1,0,28.3
Status,1646037316000,18,15,3,4,1602000000,28.20,233.00,28.00,1,1,0,28.2
Status,1646037316000,18,16,2,135,1575420032,29.20,0.00,0.00,0,0,0,29.2
Status,1646037316000,18,17,2,138,1575420032,30.50,0.00,0.00,0,0,0,30.5
Fix,FLP,37.4311076,-122.1690839,2.400000,0.027269,5.019000,63.134880,1646037317000,0.086023256,0.0,1200431039858248,1.4913119
Fix,GPS,37.4311075,-122.1690841,-5.524658,0.000000,3.216000,0.000000,1646037317000,0.086023256,0.0,1200431039858248,3.0
Raw,1646037316444,2711300209000000,18,,-1327361234235231776,-0.8782377243041992,49.55883923685178,-44.45002674443167,20.05281119080608,542,8,0.0,81935,117334368855682,16,29.6,-265.56201171875,0.20000000298023224,16,0.0,0.0,1.57542003E9,,,,0,,1,0.0,26.1,,,,,,1200430469409257
Raw,1646037316444,2711300209000000,18,,-1327361234235231776,-0.8782377243041992,49.55883923685178,-44.45002674443167,20.05281119080608,542,10,0.0,81935,117334374815260,9,35.1,64.55610656738281,0.20000000298023224,16,0.0,0.0,1.57542003E9,,,,0,,1,0.0,31.6,,,,,,1200430469409257
Raw,1646037316444,2711300209000000,18,,-1327361234235231776,-0.8782377243041992,49.55883923685178,-44.45002674443167,20.05281119080608,542,18,0.0,81935,117334367985255,61,18.5,506.61883544921875,1.0069999694824219,16,0.0,0.0,1.57542003E9,,,,0,,1,0.0,15.0,,,,,,1200430469409257
Raw,1646037316444,2711300209000000,18,,-1327361234235231776,-0.8782377243041992,49.55883923685178,-44.45002674443167,20.05281119080608,542,21,0.0,81935,117334361988109,53,19.3,-530.6909790039062,0.9980000257492065,16,0.0,0.0,1.57542003E9,,,,0,,1,0.0,15.8,,,,,,1200430469409257
Raw,1646037316444,2711300209000000,18,,-1327361234235231776,-0.8782377243041992,49.55883923685178,-44.45002674443167,20.05281119080608,542,22,0.0,81935,117334369490018,16,29.0,-578.4238891601562,0.20000000298023224,16,0.0,0.0,1.57542003E9,,,,0,,1,0.0,25.5,,,,,,1200430469409257
Raw,1646037316444,2711300209000000,18,,-1327361234235231776,-0.8782377243041992,49.55883923685178,-44.45002674443167,20.05281119080608,542,23,0.0,81935,117334371587371,21,26.3,367.55694580078125,0.20000000298023224,16,0.0,0.0,1.57542003E9,,,,0,,1,0.0,22.8,,,,,,1200430469409257
Raw,1646037316444,2711300209000000,18,,-1327361234235231776,-0.8782377243041992,49.55883923685178,-44.45002674443167,20.05281119080608,542,27,0.0,81935,117334373198510,13,31.0,150.89096069335938,0.20000000298023224,16,0.0,0.0,1.57542003E9,,,,0,,1,0.0,27.5,,,,,,1200430469409257
Raw,1646037316444,2711300209000000,18,,-1327361234235231776,-0.8782377243041992,49.55883923685178,-44.45002674443167,20.05281119080608,542,32,0.0,81935,117334373070082,13,31.1,-445.4040222167969,0.20000000298023224,16,0.0,0.0,1.57542003E9,,,,0,,1,0.0,27.6,,,,,,1200430469409257
Status,1646037317000,18,0,1,8,1575420032,29.50,300.00,33.00,1,1,1,29.5
Status,1646037317000,18,1,1,10,1575420032,34.90,1.00,67.00,1,1,1,34.9
Status,1646037317000,18,2,1,18,1575420032,18.70,115.00,27.00,1,1,1,18.7
Status,1646037317000,18,3,1,21,1575420032,19.30,309.00,12.00,1,1,1,19.3
Status,1646037317000,18,4,1,22,1575420032,29.10,195.00,33.00,1,1,1,29.1
Status,1646037317000,18,5,1,23,1575420032,26.10,52.00,42.00,1,1,1,26.1
Status,1646037317000,18,6,1,24,1575420032,15.80,67.00,18.00,1,1,1,15.8
Status,1646037317000,18,7,1,27,1575420032,30.80,258.00,52.00,1,1,1,30.8
Status,1646037317000,18,8,1,32,1575420032,30.80,192.00,52.00,1,1,1,30.8
Status,1646037317000,18,9,1,16,1575420032,0.00,0.00,0.00,0,1,0,0.0
Status,1646037317000,18,10,3,2,1602000000,31.20,30.00,36.00,1,1,0,31.2
Status,1646037317000,18,11,3,18,1602000000,28.70,333.00,74.00,1,1,0,28.7
Status,1646037317000,18,12,3,19,1602000000,21.50,329.00,26.00,1,1,0,21.5
Status,1646037317000,18,13,3,17,1602000000,26.80,144.00,49.00,1,1,0,26.8
Status,1646037317000,18,14,3,3,1602000000,28.20,292.00,74.00,1,1,0,28.2
Status,1646037317000,18,15,3,4,1602000000,28.60,233.00,28.00,1,1,0,28.6
Status,1646037317000,18,16,2,135,1575420032,29.20,0.00,0.00,0,0,0,29.2
Status,1646037317000,18,17,2,138,1575420032,30.50,0.00,0.00,0,0,0,30.5
Fix,GPS,37.4311074,-122.1690845,-5.449127,0.000000,3.216000,0.000000,1646037318000,0.086023256,0.0,1200432039858248,3.0
Fix,FLP,37.4311075,-122.1690843,2.400000,0.003684,5.019000,277.863922,1646037318000,0.086023256,0.0,1200432039858248,1.5013119
Raw,1646037317444,2711301209000000,18,,-1327361234235231777,-0.7872085571289062,44.17735181050375,-27.473337954254035,14.828613776279152,542,8,0.0,81935,117335368856588,16,29.5,-268.603515625,0.20000000298023224,16,0.0,0.0,1.57542003E9,,,,0,,1,0.0,26.0,,,,,,1200431469409258
Raw,1646037317444,2711301209000000,18,,-1327361234235231777,-0.7872085571289062,44.17735181050375,-27.473337954254035,14.828613776279152,542,10,0.0,81935,117335374815050,10,34.9,61.466575622558594,0.20000000298023224,16,0.0,0.0,1.57542003E9,,,,0,,1,0.0,31.4,,,,,,1200431469409258
Raw,1646037317444,2711301209000000,18,,-1327361234235231777,-0.7872085571289062,44.17735181050375,-27.473337954254035,14.828613776279152,542,18,0.0,81935,117335367983446,61,18.7,502.72735595703125,1.0069999694824219,16,0.0,0.0,1.57542003E9,,,,0,,1,0.0,15.2,,,,,,1200431469409258
Raw,1646037317444,2711301209000000,18,,-1327361234235231777,-0.7872085571289062,44.17735181050375,-27.473337954254035,14.828613776279152,542,21,0.0,81935,117335361989947,53,19.3,-533.0411376953125,0.9980000257492065,16,0.0,0.0,1.57542003E9,,,,0,,1,0.0,15.8,,,,,,1200431469409258
Raw,1646037317444,2711301209000000,18,,-1327361234235231777,-0.7872085571289062,44.17735181050375,-27.473337954254035,14.828613776279152,542,22,0.0,81935,117335369491941,16,29.1,-581.51953125,0.20000000298023224,16,0.0,0.0,1.57542003E9,,,,0,,1,0.0,25.6,,,,,,1200431469409258
Raw,1646037317444,2711301209000000,18,,-1327361234235231777,-0.7872085571289062,44.17735181050375,-27.473337954254035,14.828613776279152,542,23,0.0,81935,117335371586116,21,26.1,364.4382019042969,0.20000000298023224,16,0.0,0.0,1.57542003E9,,,,0,,1,0.0,22.6,,,,,,1200431469409258
Raw,1646037317444,2711301209000000,18,,-1327361234235231777,-0.7872085571289062,44.17735181050375,-27.473337954254035,14.828613776279152,542,24,0.0,81935,117335366112095,102,15.8,-23.18728256225586,2.765500068664551,16,0.0,0.0,1.57542003E9,,,,0,,1,0.0,12.3,,,,,,1200431469409258
Raw,1646037317444,2711301209000000,18,,-1327361234235231777,-0.7872085571289062,44.17735181050375,-27.473337954254035,14.828613776279152,542,27,0.0,81935,117335373198040,14,30.8,147.8516845703125,0.20000000298023224,16,0.0,0.0,1.57542003E9,,,,0,,1,0.0,27.3,,,,,,1200431469409258
Raw,1646037317444,2711301209000000,18,,-1327361234235231777,-0.7872085571289062,44.17735181050375,-27.473337954254035,14.828613776279152,542,32,0.0,81935,117335373071589,14,30.8,-448.4616394042969,0.20000000298023224,16,0.0,0.0,1.57542003E9,,,,0,,1,0.0,27.3,,,,,,1200431469409258
Status,1646037318000,18,0,1,8,1575420032,28.70,300.00,33.00,1,1,1,28.7
Status,1646037318000,18,1,1,10,1575420032,35.20,1.00,67.00,1,1,1,35.2
Status,1646037318000,18,2,1,18,1575420032,20.20,115.00,27.00,1,1,1,20.2
Status,1646037318000,18,3,1,21,1575420032,19.60,309.00,12.00,1,1,1,19.6
Status,1646037318000,18,4,1,22,1575420032,28.90,195.00,33.00,1,1,1,28.9
Status,1646037318000,18,5,1,23,1575420032,26.50,52.00,42.00,1,1,1,26.5
Status,1646037318000,18,6,1,24,1575420032,18.40,67.00,18.00,1,1,1,18.4
Status,1646037318000,18,7,1,27,1575420032,30.80,258.00,52.00,1,1,1,30.8
Status,1646037318000,18,8,1,32,1575420032,31.10,192.00,52.00,1,1,1,31.1
Status,1646037318000,18,9,1,16,1575420032,0.00,0.00,0.00,0,1,0,0.0
Status,1646037318000,18,10,3,2,1602000000,31.60,30.00,36.00,1,1,0,31.6
Status,1646037318000,18,11,3,18,1602000000,28.50,333.00,74.00,1,1,0,28.5
Status,1646037318000,18,12,3,19,1602000000,21.20,329.00,26.00,1,1,0,21.2
Status,1646037318000,18,13,3,17,1602000000,26.70,144.00,49.00,1,1,0,26.7
Status,1646037318000,18,14,3,3,1602000000,28.20,292.00,74.00,1,1,0,28.2
Status,1646037318000,18,15,3,4,1602000000,27.80,233.00,28.00,1,1,0,27.8
Status,1646037318000,18,16,2,135,1575420032,29.20,0.00,0.00,0,0,0,29.2
Status,1646037318000,18,17,2,138,1575420032,30.50,0.00,0.00,0,0,0,30.5
Fix,FLP,37.4311074,-122.1690845,2.400000,0.012940,5.019000,258.115784,1646037319000,0.086023256,0.0,1200433039858248,1.511312
Fix,GPS,37.4311074,-122.1690846,-5.443848,0.000000,3.216000,0.000000,1646037319000,0.086023256,0.0,1200433039858248,3.0
Raw,1646037318444,2711302209000000,18,,-1327361234235231820,-0.2853202819824219,37.156540201976895,-37.5527266122827,11.318028989674536,542,8,0.0,81935,117336368857499,17,28.7,-270.35357666015625,0.20000000298023224,16,0.0,0.0,1.57542003E9,,,,0,,1,0.0,25.2,,,,,,1200432469409301
Raw,1646037318444,2711302209000000,18,,-1327361234235231820,-0.2853202819824219,37.156540201976895,-37.5527266122827,11.318028989674536,542,10,0.0,81935,117336374814836,9,35.2,59.5940055847168,0.20000000298023224,16,0.0,0.0,1.57542003E9,,,,0,,1,0.0,31.700000000000003,,,,,,1200432469409301
Raw,1646037318444,2711302209000000,18,,-1327361234235231820,-0.2853202819824219,37.156540201976895,-37.5527266122827,11.318028989674536,542,18,0.0,81935,117336367981866,46,20.2,501.44287109375,0.9269999861717224,16,0.0,0.0,1.57542003E9,,,,0,,1,0.0,16.7,,,,,,1200432469409301
Raw,1646037318444,2711302209000000,18,,-1327361234235231820,-0.2853202819824219,37.156540201976895,-37.5527266122827,11.318028989674536,542,21,0.0,81935,117336361991722,53,19.6,-535.1438598632812,0.9179999828338623,16,0.0,0.0,1.57542003E9,,,,0,,1,0.0,16.1,,,,,,1200432469409301
Raw,1646037318444,2711302209000000,18,,-1327361234235231820,-0.2853202819824219,37.156540201976895,-37.5527266122827,11.318028989674536,542,22,0.0,81935,117336369493905,17,28.9,-583.3582153320312,0.20000000298023224,16,0.0,0.0,1.57542003E9,,,,0,,1,0.0,25.4,,,,,,1200432469409301
Raw,1646037318444,2711302209000000,18,,-1327361234235231820,-0.2853202819824219,37.156540201976895,-37.5527266122827,11.318028989674536,542,23,0.0,81935,117336371584949,21,26.5,362.6104736328125,0.20000000298023224,16,0.0,0.0,1.57542003E9,,,,0,,1,0.0,23.0,,,,,,1200432469409301
Raw,1646037318444,2711302209000000,18,,-1327361234235231820,-0.2853202819824219,37.156540201976895,-37.5527266122827,11.318028989674536,542,24,0.0,81935,117336366112404,61,18.4,-26.40324592590332,1.0855000019073486,16,0.0,0.0,1.57542003E9,,,,0,,1,0.0,14.899999999999999,,,,,,1200432469409301
Raw,1646037318444,2711302209000000,18,,-1327361234235231820,-0.2853202819824219,37.156540201976895,-37.5527266122827,11.318028989674536,542,27,0.0,81935,117336373197546,14,30.8,146.07920837402344,0.20000000298023224,16,0.0,0.0,1.57542003E9,,,,0,,1,0.0,27.3,,,,,,1200432469409301
Raw,1646037318444,2711302209000000,18,,-1327361234235231820,-0.2853202819824219,37.156540201976895,-37.5527266122827,11.318028989674536,542,32,0.0,81935,117336373073097,13,31.1,-450.2423095703125,0.20000000298023224,16,0.0,0.0,1.57542003E9,,,,0,,1,0.0,27.6,,,,,,1200432469409301
Status,1646037319000,18,0,1,8,1575420032,29.70,300.00,33.00,1,1,1,29.7
Status,1646037319000,18,1,1,10,1575420032,35.50,1.00,67.00,1,1,1,35.5
Status,1646037319000,18,2,1,18,1575420032,19.50,115.00,27.00,1,1,1,19.5
Status,1646037319000,18,3,1,21,1575420032,20.40,309.00,12.00,1,1,1,20.4
Status,1646037319000,18,4,1,22,1575420032,28.60,195.00,33.00,1,1,1,28.6
Status,1646037319000,18,5,1,23,1575420032,26.30,52.00,42.00,1,1,1,26.3
Status,1646037319000,18,6,1,24,1575420032,18.40,67.00,18.00,1,1,1,18.4
Status,1646037319000,18,7,1,27,1575420032,31.40,258.00,52.00,1,1,1,31.4
Status,1646037319000,18,8,1,32,1575420032,30.70,192.00,52.00,1,1,1,30.7
Status,1646037319000,18,9,1,16,1575420032,0.00,0.00,0.00,0,1,0,0.0
Status,1646037319000,18,10,3,2,1602000000,31.80,30.00,36.00,1,1,0,31.8
Status,1646037319000,18,11,3,18,1602000000,28.60,333.00,74.00,1,1,0,28.6
Status,1646037319000,18,12,3,19,1602000000,20.90,329.00,26.00,1,1,0,20.9
Status,1646037319000,18,13,3,17,1602000000,26.60,144.00,49.00,1,1,0,26.6
Status,1646037319000,18,14,3,3,1602000000,28.60,292.00,74.00,1,1,0,28.6
Status,1646037319000,18,15,3,4,1602000000,28.20,233.00,28.00,1,1,0,28.2
Status,1646037319000,18,16,2,135,1575420032,29.00,0.00,0.00,0,0,0,29.0
Status,1646037319000,18,17,2,138,1575420032,30.50,0.00,0.00,0,0,0,30.5
Fix,GPS,37.4311074,-122.1690847,-5.441650,0.000000,3.216000,0.000000,1646037320000,0.092195444,0.0,1200434039858248,3.0
Fix,FLP,37.4311074,-122.1690847,2.400000,0.013673,5.019000,259.711639,1646037320000,0.092195444,0.0,1200434039858248,1.521312
Raw,1646037319444,2711303209000000,18,,-1327361234235231869,-0.9657917022705078,39.603826735401526,-43.69197655833706,12.518493554228186,542,8,0.0,81935,117337368858399,16,29.7,-270.5726013183594,0.20000000298023224,16,0.0,0.0,1.57542003E9,,,,0,,1,0.0,26.2,,,,,,1200433469409350
Raw,1646037319444,2711303209000000,18,,-1327361234235231869,-0.9657917022705078,39.603826735401526,-43.69197655833706,12.518493554228186,542,10,0.0,81935,117337374814643,9,35.5,59.36505126953125,0.20000000298023224,16,0.0,0.0,1.57542003E9,,,,0,,1,0.0,32.0,,,,,,1200433469409350
Raw,1646037319444,2711303209000000,18,,-1327361234235231869,-0.9657917022705078,39.603826735401526,-43.69197655833706,12.518493554228186,542,18,0.0,81935,117337367980219,53,19.5,502.5941467285156,0.9269999861717224,16,0.0,0.0,1.57542003E9,,,,0,,1,0.0,16.0,,,,,,1200433469409350
Raw,1646037319444,2711303209000000,18,,-1327361234235231869,-0.9657917022705078,39.603826735401526,-43.69197655833706,12.518493554228186,542,21,0.0,81935,117337361993436,46,20.4,-536.1334228515625,0.9179999828338623,16,0.0,0.0,1.57542003E9,,,,0,,1,0.0,16.9,,,,,,1200433469409350
Raw,1646037319444,2711303209000000,18,,-1327361234235231869,-0.9657917022705078,39.603826735401526,-43.69197655833706,12.518493554228186,542,22,0.0,81935,117337369495856,17,28.6,-583.525390625,0.20000000298023224,16,0.0,0.0,1.57542003E9,,,,0,,1,0.0,25.1,,,,,,1200433469409350
Raw,1646037319444,2711303209000000,18,,-1327361234235231869,-0.9657917022705078,39.603826735401526,-43.69197655833706,12.518493554228186,542,23,0.0,81935,117337371583724,21,26.3,362.278076171875,0.20000000298023224,16,0.0,0.0,1.57542003E9,,,,0,,1,0.0,22.8,,,,,,1200433469409350
Raw,1646037319444,2711303209000000,18,,-1327361234235231869,-0.9657917022705078,39.603826735401526,-43.69197655833706,12.518493554228186,542,27,0.0,81935,117337373197045,13,31.4,145.89671325683594,0.20000000298023224,16,0.0,0.0,1.57542003E9,,,,0,,1,0.0,27.9,,,,,,1200433469409350
Raw,1646037319444,2711303209000000,18,,-1327361234235231869,-0.9657917022705078,39.603826735401526,-43.69197655833706,12.518493554228186,542,32,0.0,81935,117337373074563,14,30.7,-450.47979736328125,0.20000000298023224,16,0.0,0.0,1.57542003E9,,,,0,,1,0.0,27.2,,,,,,1200433469409350
Status,1646037320000,18,0,1,8,1575420032,29.10,300.00,33.00,1,1,1,29.1
Status,1646037320000,18,1,1,10,1575420032,35.10,1.00,67.00,1,1,1,35.1
Status,1646037320000,18,2,1,18,1575420032,20.40,115.00,27.00,1,1,1,20.4
Status,1646037320000,18,3,1,21,1575420032,19.40,309.00,12.00,1,1,1,19.4
Status,1646037320000,18,4,1,22,1575420032,29.00,195.00,33.00,1,1,1,29.0
Status,1646037320000,18,5,1,23,1575420032,26.30,52.00,42.00,1,1,1,26.3
Status,1646037320000,18,6,1,24,1575420032,17.30,67.00,18.00,1,1,1,17.3
Status,1646037320000,18,7,1,27,1575420032,30.90,258.00,52.00,1,1,1,30.9
Status,1646037320000,18,8,1,32,1575420032,31.20,192.00,52.00,1,1,1,31.2
Status,1646037320000,18,9,1,16,1575420032,0.00,0.00,0.00,0,1,0,0.0
Status,1646037320000,18,10,3,2,1602000000,31.90,30.00,36.00,1,1,0,31.9
Status,1646037320000,18,11,3,18,1602000000,28.70,333.00,74.00,1,1,0,28.7
Status,1646037320000,18,12,3,19,1602000000,20.90,329.00,26.00,1,1,0,20.9
Status,1646037320000,18,13,3,17,1602000000,27.10,144.00,49.00,1,1,0,27.1
Status,1646037320000,18,14,3,3,1602000000,28.70,292.00,74.00,1,1,0,28.7
Status,1646037320000,18,15,3,4,1602000000,28.40,233.00,28.00,1,1,0,28.4
Status,1646037320000,18,16,2,135,1575420032,28.90,0.00,0.00,0,0,0,28.9
Status,1646037320000,18,17,2,138,1575420032,30.50,0.00,0.00,0,0,0,30.5
Fix,FLP,37.4311073,-122.1690847,2.400000,0.010250,3.216000,236.294708,1646037321000,0.086023256,0.0,1200435039858248,1.531312
Fix,GPS,37.4311073,-122.1690848,-5.438965,0.000000,3.216000,0.000000,1646037321000,0.086023256,0.0,1200435039858248,3.0
Raw,1646037320444,2711304209000000,18,,-1327361234235231915,-0.7868623733520508,39.698657928965986,-44.98759702373756,12.765301960180603,542,8,0.0,81935,117338368859299,16,29.1,-270.68511962890625,0.20000000298023224,16,0.0,0.0,1.57542003E9,,,,0,,1,0.0,25.6,,,,,,1200434469409396
Raw,1646037320444,2711304209000000,18,,-1327361234235231915,-0.7868623733520508,39.698657928965986,-44.98759702373756,12.765301960180603,542,10,0.0,81935,117338374814441,9,35.1,59.109676361083984,0.20000000298023224,16,0.0,0.0,1.57542003E9,,,,0,,1,0.0,31.6,,,,,,1200434469409396
Raw,1646037320444,2711304209000000,18,,-1327361234235231915,-0.7868623733520508,39.698657928965986,-44.98759702373756,12.765301960180603,542,18,0.0,81935,117338367978504,46,20.4,501.52850341796875,0.9269999861717224,16,0.0,0.0,1.57542003E9,,,,0,,1,0.0,16.9,,,,,,1200434469409396
Raw,1646037320444,2711304209000000,18,,-1327361234235231915,-0.7868623733520508,39.698657928965986,-44.98759702373756,12.765301960180603,542,21,0.0,81935,117338361995263,53,19.4,-534.91552734375,0.9980000257492065,16,0.0,0.0,1.57542003E9,,,,0,,1,0.0,15.899999999999999,,,,,,1200434469409396
Raw,1646037320444,2711304209000000,18,,-1327361234235231915,-0.7868623733520508,39.698657928965986,-44.98759702373756,12.765301960180603,542,22,0.0,81935,117338369497805,16,29.0,-583.8179321289062,0.20000000298023224,16,0.0,0.0,1.57542003E9,,,,0,,1,0.0,25.5,,,,,,1200434469409396
Raw,1646037320444,2711304209000000,18,,-1327361234235231915,-0.7868623733520508,39.698657928965986,-44.98759702373756,12.765301960180603,542,23,0.0,81935,117338371582504,21,26.3,362.09698486328125,0.20000000298023224,16,0.0,0.0,1.57542003E9,,,,0,,1,0.0,22.8,,,,,,1200434469409396
Raw,1646037320444,2711304209000000,18,,-1327361234235231915,-0.7868623733520508,39.698657928965986,-44.98759702373756,12.765301960180603,542,24,0.0,81935,117338366112433,73,17.3,-26.58402442932129,1.9255000352859497,16,0.0,0.0,1.57542003E9,,,,0,,1,0.0,13.8,,,,,,1200434469409396
Raw,1646037320444,2711304209000000,18,,-1327361234235231915,-0.7868623733520508,39.698657928965986,-44.98759702373756,12.765301960180603,542,27,0.0,81935,117338373196589,14,30.9,145.8011932373047,0.20000000298023224,16,0.0,0.0,1.57542003E9,,,,0,,1,0.0,27.4,,,,,,1200434469409396
Raw,1646037320444,2711304209000000,18,,-1327361234235231915,-0.7868623733520508,39.698657928965986,-44.98759702373756,12.765301960180603,542,32,0.0,81935,117338373076081,13,31.2,-450.6950988769531,0.20000000298023224,16,0.0,0.0,1.57542003E9,,,,0,,1,0.0,27.7,,,,,,1200434469409396
Status,1646037321000,18,0,1,8,1575420032,29.20,300.00,33.00,1,1,1,29.2
Status,1646037321000,18,1,1,10,1575420032,35.00,1.00,67.00,1,1,1,35.0
Status,1646037321000,18,2,1,18,1575420032,20.20,115.00,27.00,1,1,1,20.2
Status,1646037321000,18,3,1,21,1575420032,21.10,309.00,12.00,1,1,1,21.1
Status,1646037321000,18,4,1,22,1575420032,29.00,195.00,33.00,1,1,1,29.0
Status,1646037321000,18,5,1,23,1575420032,25.90,52.00,42.00,1,1,1,25.9
Status,1646037321000,18,6,1,24,1575420032,17.30,67.00,18.00,1,1,1,17.3
Status,1646037321000,18,7,1,27,1575420032,30.70,258.00,52.00,1,1,1,30.7
Status,1646037321000,18,8,1,32,1575420032,31.20,192.00,52.00,1,1,1,31.2
Status,1646037321000,18,9,1,16,1575420032,0.00,0.00,0.00,0,1,0,0.0
Status,1646037321000,18,10,3,2,1602000000,31.60,30.00,36.00,1,1,0,31.6
Status,1646037321000,18,11,3,18,1602000000,28.30,333.00,74.00,1,1,0,28.3
Status,1646037321000,18,12,3,19,1602000000,20.90,329.00,26.00,1,1,0,20.9
Status,1646037321000,18,13,3,17,1602000000,26.60,144.00,49.00,1,1,0,26.6
Status,1646037321000,18,14,3,3,1602000000,28.50,292.00,74.00,1,1,0,28.5
Status,1646037321000,18,15,3,4,1602000000,28.30,233.00,28.00,1,1,0,28.3
Status,1646037321000,18,16,2,135,1575420032,28.70,0.00,0.00,0,0,0,28.7
Status,1646037321000,18,17,2,138,1575420032,30.50,0.00,0.00,0,0,0,30.5
Fix,GPS,37.4311074,-122.1690848,-5.432770,0.000000,3.216000,0.000000,1646037322000,0.086023256,0.0,1200436039858248,3.0
Fix,FLP,37.4311074,-122.1690848,2.400000,0.007417,3.216000,269.250153,1646037322000,0.086023256,0.0,1200436039858248,1.541312
Raw,1646037321444,2711305209000000,18,,-1327361234235231965,-0.6312465667724609,40.0508833990898,-45.9531608914543,12.773272244075324,542,8,0.0,81935,117339368860196,16,29.2,-272.3595886230469,0.20000000298023224,16,0.0,0.0,1.57542003E9,,,,0,,1,0.0,25.7,,,,,,1200435469409446
Raw,1646037321444,2711305209000000,18,,-1327361234235231965,-0.6312465667724609,40.0508833990898,-45.9531608914543,12.773272244075324,542,10,0.0,81935,117339374814261,9,35.0,57.39318084716797,0.20000000298023224,16,0.0,0.0,1.57542003E9,,,,0,,1,0.0,31.5,,,,,,1200435469409446
Raw,1646037321444,2711305209000000,18,,-1327361234235231965,-0.6312465667724609,40.0508833990898,-45.9531608914543,12.773272244075324,542,18,0.0,81935,117339367976769,46,20.2,499.2544860839844,0.9269999861717224,16,0.0,0.0,1.57542003E9,,,,0,,1,0.0,16.7,,,,,,1200435469409446
Raw,1646037321444,2711305209000000,18,,-1327361234235231965,-0.6312465667724609,40.0508833990898,-45.9531608914543,12.773272244075324,542,21,0.0,81935,117339361996986,40,21.1,-537.5986938476562,0.8479999899864197,16,0.0,0.0,1.57542003E9,,,,0,,1,0.0,17.6,,,,,,1200435469409446
Raw,1646037321444,2711305209000000,18,,-1327361234235231965,-0.6312465667724609,40.0508833990898,-45.9531608914543,12.773272244075324,542,22,0.0,81935,117339369499729,16,29.0,-585.5120849609375,0.20000000298023224,16,0.0,0.0,1.57542003E9,,,,0,,1,0.0,25.5,,,,,,1200435469409446
Raw,1646037321444,2711305209000000,18,,-1327361234235231965,-0.6312465667724609,40.0508833990898,-45.9531608914543,12.773272244075324,542,23,0.0,81935,117339371581325,24,25.9,360.24176025390625,0.3982999920845032,16,0.0,0.0,1.57542003E9,,,,0,,1,0.0,22.4,,,,,,1200435469409446
Raw,1646037321444,2711305209000000,18,,-1327361234235231965,-0.6312465667724609,40.0508833990898,-45.9531608914543,12.773272244075324,542,27,0.0,81935,117339373196081,14,30.7,144.09381103515625,0.20000000298023224,16,0.0,0.0,1.57542003E9,,,,0,,1,0.0,27.2,,,,,,1200435469409446
Raw,1646037321444,2711305209000000,18,,-1327361234235231965,-0.6312465667724609,40.0508833990898,-45.9531608914543,12.773272244075324,542,32,0.0,81935,117339373077587,13,31.2,-452.34100341796875,0.20000000298023224,16,0.0,0.0,1.57542003E9,,,,0,,1,0.0,27.7,,,,,,1200435469409446
Fix,NLP,37.4303045,-122.1671078,0.000000,0.000000,968.000000,0.000000,1646037320042,0.0,0.0,1200435604000000,0.0
Status,1646037322000,18,0,1,8,1575420032,29.40,300.00,33.00,1,1,1,29.4
Status,1646037322000,18,1,1,10,1575420032,35.20,1.00,67.00,1,1,1,35.2
Status,1646037322000,18,2,1,18,1575420032,19.40,115.00,27.00,1,1,1,19.4
Status,1646037322000,18,3,1,21,1575420032,19.50,309.00,12.00,1,1,1,19.5
Status,1646037322000,18,4,1,22,1575420032,28.70,195.00,33.00,1,1,1,28.7
Status,1646037322000,18,5,1,23,1575420032,26.30,52.00,42.00,1,1,1,26.3
Status,1646037322000,18,6,1,24,1575420032,17.30,67.00,18.00,1,1,1,17.3
Status,1646037322000,18,7,1,27,1575420032,30.70,258.00,52.00,1,1,1,30.7
Status,1646037322000,18,8,1,32,1575420032,31.00,192.00,52.00,1,1,1,31.0
Status,1646037322000,18,9,1,16,1575420032,0.00,0.00,0.00,0,1,0,0.0
Status,1646037322000,18,10,3,2,1602000000,31.20,30.00,36.00,1,1,0,31.2
Status,1646037322000,18,11,3,18,1602000000,29.10,333.00,74.00,1,1,0,29.1
Status,1646037322000,18,12,3,19,1602000000,22.00,329.00,26.00,1,1,0,22.0
Status,1646037322000,18,13,3,17,1602000000,26.50,144.00,49.00,1,1,0,26.5
Status,1646037322000,18,14,3,3,1602000000,28.70,292.00,74.00,1,1,0,28.7
Status,1646037322000,18,15,3,4,1602000000,28.00,233.00,28.00,1,1,0,28.0
Status,1646037322000,18,16,2,135,1575420032,28.90,0.00,0.00,0,0,0,28.9
Status,1646037322000,18,17,2,138,1575420032,30.50,0.00,0.00,0,0,0,30.5
Fix,GPS,37.4311073,-122.1690848,-5.432556,0.000000,3.216000,0.000000,1646037323000,0.086023256,0.0,1200437039858248,4.0
Fix,FLP,37.4311073,-122.1690848,2.400000,0.004424,3.216000,225.312225,1646037323000,0.086023256,0.0,1200437039858248,1.551312
Raw,1646037322444,2711306209000000,18,,-1327361234235232017,-0.26377010345458984,37.611654988722876,-51.859346439365915,12.401245604258266,542,8,0.0,81935,117340368861117,16,29.4,-274.7481689453125,0.20000000298023224,16,0.0,0.0,1.57542003E9,,,,0,,1,0.0,25.9,,,,,,1200436469409498
Raw,1646037322444,2711306209000000,18,,-1327361234235232017,-0.26377010345458984,37.611654988722876,-51.859346439365915,12.401245604258266,542,10,0.0,81935,117340374814065,9,35.2,54.87651824951172,0.20000000298023224,16,0.0,0.0,1.57542003E9,,,,0,,1,0.0,31.700000000000003,,,,,,1200436469409498
Raw,1646037322444,2711306209000000,18,,-1327361234235232017,-0.26377010345458984,37.611654988722876,-51.859346439365915,12.401245604258266,542,18,0.0,81935,117340367975310,53,19.4,496.7806701660156,1.0069999694824219,16,0.0,0.0,1.57542003E9,,,,0,,1,0.0,15.899999999999999,,,,,,1200436469409498
Raw,1646037322444,2711306209000000,18,,-1327361234235232017,-0.26377010345458984,37.611654988722876,-51.859346439365915,12.401245604258266,542,21,0.0,81935,117340361998788,53,19.5,-541.1286010742188,0.9179999828338623,16,0.0,0.0,1.57542003E9,,,,0,,1,0.0,16.0,,,,,,1200436469409498
Raw,1646037322444,2711306209000000,18,,-1327361234235232017,-0.26377010345458984,37.611654988722876,-51.859346439365915,12.401245604258266,542,22,0.0,81935,117340369501705,17,28.7,-587.9923095703125,0.20000000298023224,16,0.0,0.0,1.57542003E9,,,,0,,1,0.0,25.2,,,,,,1200436469409498
Raw,1646037322444,2711306209000000,18,,-1327361234235232017,-0.26377010345458984,37.611654988722876,-51.859346439365915,12.401245604258266,542,23,0.0,81935,117340371580130,21,26.3,357.7939758300781,0.20000000298023224,16,0.0,0.0,1.57542003E9,,,,0,,1,0.0,22.8,,,,,,1200436469409498
Raw,1646037322444,2711306209000000,18,,-1327361234235232017,-0.26377010345458984,37.611654988722876,-51.859346439365915,12.401245604258266,542,27,0.0,81935,117340373195588,14,30.7,141.7491912841797,0.20000000298023224,16,0.0,0.0,1.57542003E9,,,,0,,1,0.0,27.2,,,,,,1200436469409498
Raw,1646037322444,2711306209000000,18,,-1327361234235232017,-0.26377010345458984,37.611654988722876,-51.859346439365915,12.401245604258266,542,32,0.0,81935,117340373079103,13,31.0,-454.769775390625,0.20000000298023224,16,0.0,0.0,1.57542003E9,,,,0,,1,0.0,27.5,,,,,,1200436469409498
Status,1646037323000,18,0,1,8,1575420032,28.80,300.00,33.00,1,1,1,28.8
Status,1646037323000,18,1,1,10,1575420032,35.20,1.00,67.00,1,1,1,35.2
Status,1646037323000,18,2,1,18,1575420032,19.40,115.00,27.00,1,1,1,19.4
Status,1646037323000,18,3,1,21,1575420032,21.20,309.00,12.00,1,1,1,21.2
Status,1646037323000,18,4,1,22,1575420032,28.70,195.00,33.00,1,1,1,28.7
Status,1646037323000,18,5,1,23,1575420032,24.90,52.00,42.00,1,1,1,24.9
Status,1646037323000,18,6,1,24,1575420032,16.20,67.00,18.00,1,1,1,16.2
Status,1646037323000,18,7,1,27,1575420032,30.80,258.00,52.00,1,1,1,30.8
Status,1646037323000,18,8,1,32,1575420032,30.90,192.00,52.00,1,1,1,30.9
Status,1646037323000,18,9,1,16,1575420032,0.00,0.00,0.00,0,1,0,0.0
Status,1646037323000,18,10,3,2,1602000000,31.60,30.00,36.00,1,1,0,31.6
Status,1646037323000,18,11,3,18,1602000000,28.50,333.00,74.00,1,1,0,28.5
Status,1646037323000,18,12,3,19,1602000000,20.30,329.00,26.00,1,1,0,20.3
Status,1646037323000,18,13,3,17,1602000000,25.30,144.00,49.00,1,1,0,25.3
Status,1646037323000,18,14,3,3,1602000000,28.70,292.00,74.00,1,1,0,28.7
Status,1646037323000,18,15,3,4,1602000000,28.30,233.00,28.00,1,1,0,28.3
Status,1646037323000,18,16,2,135,1575420032,28.50,0.00,0.00,0,0,0,28.5
Status,1646037323000,18,17,2,138,1575420032,30.50,0.00,0.00,0,0,0,30.5
Fix,FLP,37.4311073,-122.1690848,2.400000,0.002858,3.216000,197.742081,1646037324000,0.086023256,0.0,1200438039858248,1.561312
Fix,GPS,37.4311073,-122.1690848,-5.432465,0.000000,3.216000,0.000000,1646037324000,0.086023256,0.0,1200438039858248,4.0
Raw,1646037323444,2711307209000000,18,,-1327361234235232081,-0.7708969116210938,41.52397013967857,-59.54869969696318,14.68752814027248,542,8,0.0,81935,117341368862037,17,28.8,-272.9165954589844,0.20000000298023224,16,0.0,0.0,1.57542003E9,,,,0,,1,0.0,25.3,,,,,,1200437469409562
Raw,1646037323444,2711307209000000,18,,-1327361234235232081,-0.7708969116210938,41.52397013967857,-59.54869969696318,14.68752814027248,542,10,0.0,81935,117341374813873,9,35.2,56.685482025146484,0.20000000298023224,16,0.0,0.0,1.57542003E9,,,,0,,1,0.0,31.700000000000003,,,,,,1200437469409562
Raw,1646037323444,2711307209000000,18,,-1327361234235232081,-0.7708969116210938,41.52397013967857,-59.54869969696318,14.68752814027248,542,18,0.0,81935,117341367973471,53,19.4,498.8548583984375,1.0069999694824219,16,0.0,0.0,1.57542003E9,,,,0,,1,0.0,15.899999999999999,,,,,,1200437469409562
Raw,1646037323444,2711307209000000,18,,-1327361234235232081,-0.7708969116210938,41.52397013967857,-59.54869969696318,14.68752814027248,542,21,0.0,81935,117341362000597,40,21.2,-538.2647094726562,0.8495000004768372,16,0.0,0.0,1.57542003E9,,,,0,,1,0.0,17.7,,,,,,1200437469409562
Raw,1646037323444,2711307209000000,18,,-1327361234235232081,-0.7708969116210938,41.52397013967857,-59.54869969696318,14.68752814027248,542,22,0.0,81935,117341369503644,17,28.7,-586.114501953125,0.20000000298023224,16,0.0,0.0,1.57542003E9,,,,0,,1,0.0,25.2,,,,,,1200437469409562
Raw,1646037323444,2711307209000000,18,,-1327361234235232081,-0.7708969116210938,41.52397013967857,-59.54869969696318,14.68752814027248,542,23,0.0,81935,117341371578945,27,24.9,358.989013671875,0.6330000162124634,16,0.0,0.0,1.57542003E9,,,,0,,1,0.0,21.4,,,,,,1200437469409562
Raw,1646037323444,2711307209000000,18,,-1327361234235232081,-0.7708969116210938,41.52397013967857,-59.54869969696318,14.68752814027248,542,24,0.0,81935,117341366112923,90,16.2,-29.219593048095703,2.765500068664551,16,0.0,0.0,1.57542003E9,,,,0,,1,0.0,12.7,,,,,,1200437469409562
Raw,1646037323444,2711307209000000,18,,-1327361234235232081,-0.7708969116210938,41.52397013967857,-59.54869969696318,14.68752814027248,542,27,0.0,81935,117341373195141,14,30.8,143.6143341064453,0.20000000298023224,16,0.0,0.0,1.57542003E9,,,,0,,1,0.0,27.3,,,,,,1200437469409562
Raw,1646037323444,2711307209000000,18,,-1327361234235232081,-0.7708969116210938,41.52397013967857,-59.54869969696318,14.68752814027248,542,32,0.0,81935,117341373080616,14,30.9,-452.94854736328125,0.20000000298023224,16,0.0,0.0,1.57542003E9,,,,0,,1,0.0,27.4,,,,,,1200437469409562
Status,1646037324000,18,0,1,8,1575420032,29.20,300.00,33.00,1,1,1,29.2
Status,1646037324000,18,1,1,10,1575420032,35.00,1.00,67.00,1,1,1,35.0
Status,1646037324000,18,2,1,18,1575420032,19.30,115.00,27.00,1,1,1,19.3
